{
    "cities": [
        {
            "size": 2,
            "name": "goroka",
            "lat": -6.082,
            "long": 145.392,
            "axis": "x",
            "lesser": 1,
            "greater": 2,
            "least": -0.8305658729524648,
            "greatest": -0.7909979844885302,
            "x": -0.8184243158503988,
            "y": 0.5647617900842921,
            "z": -0.10595168561940252
        },
        {
            "size": 2,
            "name": "madang",
            "lat": -5.207,
            "long": 145.789,
            "axis": "y",
            "lesser": 3,
            "greater": -1,
            "least": 0.5450404383394636,
            "greatest": 0.5599219611632767,
            "x": -0.8235599939037913,
            "y": 0.5599219611632767,
            "z": -0.09075424975315068
        },
        {
            "size": 2,
            "name": "mount hagen",
            "lat": -5.826,
            "long": 144.296,
            "axis": "y",
            "lesser": 3798,
            "greater": -1,
            "least": 0.5384703355008207,
            "greatest": 0.5805834741122496,
            "x": -0.8078483808353374,
            "y": 0.5805834741122496,
            "z": -0.10150774930750092
        },
        {
            "size": 2,
            "name": "nadzab",
            "lat": -6.57,
            "long": 146.726,
            "axis": "z",
            "lesser": -1,
            "greater": -1,
            "least": -0.11441700599751574,
            "greatest": -0.11441700599751574,
            "x": -0.8305658729524648,
            "y": 0.5450404383394636,
            "z": -0.11441700599751574
        },
        {
            "size": 1,
            "name": "port moresby",
            "lat": -9.443,
            "long": 147.22,
            "axis": "y",
            "lesser": 3823,
            "greater": -1,
            "least": 0.4179295140227728,
            "greatest": 0.5340782200292346,
            "x": -0.8293628241972498,
            "y": 0.5340782200292346,
            "z": -0.16406633027518536
        },
        {
            "size": 2,
            "name": "wewak",
            "lat": -3.584,
            "long": 143.669,
            "axis": "y",
            "lesser": 3806,
            "greater": 3685,
            "least": 0.4407388040357772,
            "greatest": 0.730965138467099,
            "x": -0.8040322657873097,
            "y": 0.5912904434392667,
            "z": -0.06251181544572497
        },
        {
            "size": 2,
            "name": "narssarssuaq",
            "lat": 61.161,
            "long": -45.427,
            "axis": "y",
            "lesser": 27,
            "greater": -1,
            "least": -0.5178210887134344,
            "greatest": -0.34360535839886114,
            "x": 0.33852167443438347,
            "y": -0.34360535839886114,
            "z": 0.8759785577385621
        },
        {
            "size": 2,
            "name": "nerlerit inaat",
            "lat": 70.739,
            "long": -22.646,
            "axis": "z",
            "lesser": -1,
            "greater": -1,
            "least": 0.9440257069342209,
            "greatest": 0.9440257069342209,
            "x": 0.3044392261629877,
            "y": -0.12701268527444623,
            "z": 0.9440257069342209
        },
        {
            "size": 2,
            "name": "godthaab",
            "lat": 64.191,
            "long": -51.678,
            "axis": "z",
            "lesser": 187,
            "greater": 20,
            "least": 0.7814333547762411,
            "greatest": 0.9106115466114877,
            "x": 0.2699659282695179,
            "y": -0.34156642844257185,
            "z": 0.9002503943540169
        },
        {
            "size": 2,
            "name": "jakobshavn",
            "lat": 69.233,
            "long": -51.067,
            "axis": "z",
            "lesser": 169,
            "greater": 79,
            "least": 0.9145718706808358,
            "greatest": 0.9724960841639323,
            "x": 0.22281480185497674,
            "y": -0.2758122059086716,
            "z": 0.9350300482584075
        },
        {
            "size": 2,
            "name": "kulusuk",
            "lat": 65.583,
            "long": -37.15,
            "axis": "y",
            "lesser": 143,
            "greater": -1,
            "least": -0.4227949709638645,
            "greatest": -0.24963849423116682,
            "x": 0.3294832258407522,
            "y": -0.24963849423116682,
            "z": 0.9105610501704801
        },
        {
            "size": 2,
            "name": "sondrestrom",
            "lat": 67.017,
            "long": -50.689,
            "axis": "y",
            "lesser": 153,
            "greater": -1,
            "least": -0.34337734939229514,
            "greatest": -0.30210460900812475,
            "x": 0.24736662818106503,
            "y": -0.30210460900812475,
            "z": 0.9206207451922744
        },
        {
            "size": 2,
            "name": "thule",
            "lat": 76.531,
            "long": -68.703,
            "axis": "y",
            "lesser": 43,
            "greater": -1,
            "least": -0.3108303712215637,
            "greatest": -0.2170132302682864,
            "x": 0.0845968331224139,
            "y": -0.2170132302682864,
            "z": 0.9724960841639323
        },
        {
            "size": 2,
            "name": "akureyri",
            "lat": 65.66,
            "long": -18.072,
            "axis": "z",
            "lesser": 21,
            "greater": 668,
            "least": 0.7814333547762411,
            "greatest": 0.9914858184599514,
            "x": 0.39181809800088246,
            "y": -0.12785399438088674,
            "z": 0.911115763336264
        },
        {
            "size": 2,
            "name": "egilsstadir",
            "lat": 65.283,
            "long": -14.401,
            "axis": "z",
            "lesser": -1,
            "greater": -1,
            "least": 0.90838415388189,
            "greatest": 0.90838415388189,
            "x": 0.40499826957443297,
            "y": -0.10399341622428691,
            "z": 0.90838415388189
        },
        {
            "size": 2,
            "name": "hofn",
            "lat": 64.296,
            "long": -15.227,
            "axis": "z",
            "lesser": 729,
            "greater": 636,
            "least": 0.8942167470858745,
            "greatest": 0.9096642896623629,
            "x": 0.41849524047464515,
            "y": -0.11391443634401124,
            "z": 0.9010467440108172
        },
        {
            "size": 2,
            "name": "husavik",
            "lat": 65.952,
            "long": -17.426,
            "axis": "z",
            "lesser": -1,
            "greater": -1,
            "least": 0.9132043902084862,
            "greatest": 0.9132043902084862,
            "x": 0.3887993422245263,
            "y": -0.12203611428475786,
            "z": 0.9132043902084862
        },
        {
            "size": 2,
            "name": "isafjordur",
            "lat": 66.058,
            "long": -23.135,
            "axis": "z",
            "lesser": -1,
            "greater": -1,
            "least": 0.9139567253316228,
            "greatest": 0.9139567253316228,
            "x": 0.3731769611378807,
            "y": -0.15944296753696413,
            "z": 0.9139567253316228
        },
        {
            "size": 2,
            "name": "keflavik",
            "lat": 63.985,
            "long": -22.606,
            "axis": "z",
            "lesser": -1,
            "greater": -1,
            "least": 0.8986792502014336,
            "greatest": 0.8986792502014336,
            "x": 0.40490828934434886,
            "y": -0.1685968044703761,
            "z": 0.8986792502014336
        },
        {
            "size": 2,
            "name": "kopasker",
            "lat": 66.314,
            "long": -16.461,
            "axis": "z",
            "lesser": 763,
            "greater": 643,
            "least": 0.9120056085033337,
            "greatest": 0.9354008387497089,
            "x": 0.3852584974775698,
            "y": -0.11383357699316439,
            "z": 0.9157607803734918
        },
        {
            "size": 2,
            "name": "patreksfjordur",
            "lat": 65.556,
            "long": -23.965,
            "axis": "x",
            "lesser": 10,
            "greater": 743,
            "least": 0.10129339475001815,
            "greatest": 0.40320872913152916,
            "x": 0.37813120014578255,
            "y": -0.1680781568641695,
            "z": 0.9103661508763679
        },
        {
            "size": 2,
            "name": "reykjavik",
            "lat": 64.13,
            "long": -21.941,
            "axis": "x",
            "lesser": 761,
            "greater": 466,
            "least": -0.016871017644021075,
            "greatest": 0.42823713406935854,
            "x": 0.40472689952574287,
            "y": -0.16303568636897486,
            "z": 0.8997863645168649
        },
        {
            "size": 2,
            "name": "siglufjordur",
            "lat": 66.133,
            "long": -18.917,
            "axis": "y",
            "lesser": 17,
            "greater": 16,
            "least": -0.15944296753696413,
            "greatest": -0.12203611428475786,
            "x": 0.3827613737693472,
            "y": -0.1311754023980396,
            "z": 0.9144871483820396
        },
        {
            "size": 2,
            "name": "vestmannaeyjar",
            "lat": 63.424,
            "long": -20.279,
            "axis": "y",
            "lesser": 18,
            "greater": 741,
            "least": -0.1685968044703761,
            "greatest": 0.15308745100511634,
            "x": 0.4196538383876544,
            "y": -0.15505983438684232,
            "z": 0.8943417152780214
        },
        {
            "size": 2,
            "name": "sault sainte marie",
            "lat": 46.485,
            "long": -84.509,
            "axis": "z",
            "lesser": -1,
            "greater": -1,
            "least": 0.7251941353496533,
            "greatest": 0.7251941353496533,
            "x": 0.06588640220775817,
            "y": -0.6853848904510417,
            "z": 0.7251941353496533
        },
        {
            "size": 0,
            "name": "winnipeg",
            "lat": 50.056,
            "long": -97.032,
            "axis": "z",
            "lesser": -1,
            "greater": -1,
            "least": 0.766672327695509,
            "greatest": 0.766672327695509,
            "x": -0.07860071749272068,
            "y": -0.6372091251352099,
            "z": 0.766672327695509
        },
        {
            "size": 1,
            "name": "halifax",
            "lat": 44.64,
            "long": -63.499,
            "axis": "y",
            "lesser": -1,
            "greater": -1,
            "least": -0.6367721857732206,
            "greatest": -0.6367721857732206,
            "x": 0.3174967769399737,
            "y": -0.6367721857732206,
            "z": 0.7026499697988492
        },
        {
            "size": 2,
            "name": "st. anthony",
            "lat": 51.392,
            "long": -56.084,
            "axis": "z",
            "lesser": -1,
            "greater": -1,
            "least": 0.7814333547762411,
            "greatest": 0.7814333547762411,
            "x": 0.348171268382075,
            "y": -0.5178210887134344,
            "z": 0.7814333547762411
        },
        {
            "size": 2,
            "name": "tofino",
            "lat": 49.082,
            "long": -125.772,
            "axis": "y",
            "lesser": 36,
            "greater": -1,
            "least": -0.5441596277681846,
            "greatest": -0.5314163239260462,
            "x": -0.38287489502733785,
            "y": -0.5314163239260462,
            "z": 0.7556477389781118
        },
        {
            "size": 2,
            "name": "pelly bay",
            "lat": 68.534,
            "long": -89.808,
            "axis": "y",
            "lesser": 148,
            "greater": 149,
            "least": -0.3975484818754078,
            "greatest": -0.3577959916532249,
            "x": 0.0012263047126949266,
            "y": -0.3659469866327471,
            "z": 0.9306348903577405
        },
        {
            "size": 2,
            "name": "baie comeau",
            "lat": 49.132,
            "long": -68.207,
            "axis": "y",
            "lesser": 38,
            "greater": 128,
            "least": -0.6489291846230141,
            "greatest": -0.5352354500184426,
            "x": 0.24291864359680615,
            "y": -0.6075551950353812,
            "z": 0.7562190275169012
        },
        {
            "size": 2,
            "name": "bagotville",
            "lat": 48.331,
            "long": -70.996,
            "axis": "y",
            "lesser": 132,
            "greater": -1,
            "least": -0.6299663919362057,
            "greatest": -0.6285904917364147,
            "x": 0.21649015177181177,
            "y": -0.6285904917364147,
            "z": 0.7469979972425564
        },
        {
            "size": 2,
            "name": "baker lake",
            "lat": 64.299,
            "long": -96.078,
            "axis": "z",
            "lesser": 63,
            "greater": 73,
            "least": 0.876146876296296,
            "greatest": 0.944163800525676,
            "x": -0.04591847135709108,
            "y": -0.4312369834893478,
            "z": 0.9010694524059929
        },
        {
            "size": 2,
            "name": "campbell river",
            "lat": 49.951,
            "long": -125.271,
            "axis": "x",
            "lesser": 2672,
            "greater": 139,
            "least": -0.880374666783022,
            "greatest": -0.036786499996026734,
            "x": -0.37155231339198785,
            "y": -0.5253257417303095,
            "z": 0.7654944437999287
        },
        {
            "size": 2,
            "name": "brandon",
            "lat": 49.91,
            "long": -99.952,
            "axis": "z",
            "lesser": -1,
            "greater": -1,
            "least": 0.7650338100487342,
            "greatest": 0.7650338100487342,
            "x": -0.11129635933469362,
            "y": -0.6342999210792636,
            "z": 0.7650338100487342
        },
        {
            "size": 2,
            "name": "cambridge bay",
            "lat": 69.108,
            "long": -105.138,
            "axis": "y",
            "lesser": 74,
            "greater": -1,
            "least": -0.36239453313280784,
            "greatest": -0.3442331476413683,
            "x": -0.09312620076387897,
            "y": -0.3442331476413683,
            "z": 0.9342542752357099
        },
        {
            "size": 2,
            "name": "nanaimo",
            "lat": 49.052,
            "long": -123.87,
            "axis": "z",
            "lesser": -1,
            "greater": -1,
            "least": 0.755304689606836,
            "greatest": 0.755304689606836,
            "x": -0.36524666372892683,
            "y": -0.5441596277681846,
            "z": 0.755304689606836
        },
        {
            "size": 2,
            "name": "castlegar",
            "lat": 49.296,
            "long": -117.632,
            "axis": "y",
            "lesser": 164,
            "greater": 180,
            "least": -0.5834834113214148,
            "greatest": -0.5651074251444097,
            "x": -0.3024618602905504,
            "y": -0.5777700063984935,
            "z": 0.7580888092933864
        },
        {
            "size": 2,
            "name": "chatham",
            "lat": 47.008,
            "long": -65.449,
            "axis": "z",
            "lesser": 1427,
            "greater": 60,
            "least": 0.7208294029507938,
            "greatest": 0.7517937746252958,
            "x": 0.2833299670787026,
            "y": -0.6202472152516727,
            "z": 0.7314489194248129
        },
        {
            "size": 2,
            "name": "charlo",
            "lat": 47.991,
            "long": -66.331,
            "axis": "y",
            "lesser": 191,
            "greater": -1,
            "least": -0.6139435644002363,
            "greatest": -0.6129502013507692,
            "x": 0.2686708781033173,
            "y": -0.6129502013507692,
            "z": 0.7430397095197833
        },
        {
            "size": 2,
            "name": "coppermine",
            "lat": 67.817,
            "long": -115.144,
            "axis": "z",
            "lesser": -1,
            "greater": -1,
            "least": 0.9259826516723348,
            "greatest": 0.9259826516723348,
            "x": -0.1604258265621884,
            "y": -0.34178894507240887,
            "z": 0.9259826516723348
        },
        {
            "size": 2,
            "name": "coronation",
            "lat": 52.075,
            "long": -111.445,
            "axis": "z",
            "lesser": -1,
            "greater": -1,
            "least": 0.78881597724576,
            "greatest": 0.78881597724576,
            "x": -0.2247133935432193,
            "y": -0.5720780058734184,
            "z": 0.78881597724576
        },
        {
            "size": 2,
            "name": "chilliwack",
            "lat": 49.153,
            "long": -121.939,
            "axis": "z",
            "lesser": -1,
            "greater": -1,
            "least": 0.7564587969967626,
            "greatest": 0.7564587969967626,
            "x": -0.34599839737112775,
            "y": -0.5550272042547303,
            "z": 0.7564587969967626
        },
        {
            "size": 2,
            "name": "clyde river",
            "lat": 70.486,
            "long": -68.517,
            "axis": "z",
            "lesser": -1,
            "greater": -1,
            "least": 0.9425598985501471,
            "greatest": 0.9425598985501471,
            "x": 0.12233281641244612,
            "y": -0.3108303712215637,
            "z": 0.9425598985501471
        },
        {
            "size": 2,
            "name": "coral harbour",
            "lat": 50.332,
            "long": -115.874,
            "axis": "z",
            "lesser": -1,
            "greater": -1,
            "least": 0.769756190279913,
            "greatest": 0.769756190279913,
            "x": -0.27856657945045654,
            "y": -0.5743483858591637,
            "z": 0.769756190279913
        },
        {
            "size": 2,
            "name": "dawson",
            "lat": 64.043,
            "long": -139.128,
            "axis": "y",
            "lesser": 32,
            "greater": 2726,
            "least": -0.44142369083470767,
            "greatest": -0.10124730794522684,
            "x": -0.3309744162126821,
            "y": -0.28641604302361356,
            "z": 0.8991227870048505
        },
        {
            "size": 2,
            "name": "burwash",
            "lat": 61.371,
            "long": -139.041,
            "axis": "z",
            "lesser": -1,
            "greater": -1,
            "least": 0.877740575254379,
            "greatest": 0.877740575254379,
            "x": -0.36183351363016075,
            "y": -0.3140827772517369,
            "z": 0.877740575254379
        },
        {
            "size": 2,
            "name": "princeton",
            "lat": 49.468,
            "long": -120.512,
            "axis": "y",
            "lesser": 91,
            "greater": 107,
            "least": -0.623066030589975,
            "greatest": -0.5304296839245172,
            "x": -0.3299525629894025,
            "y": -0.5598801225004157,
            "z": 0.7600431268063963
        },
        {
            "size": 2,
            "name": "deer lake",
            "lat": 49.211,
            "long": -57.391,
            "axis": "y",
            "lesser": 97,
            "greater": -1,
            "least": -0.5641909585380058,
            "greatest": -0.550298014708665,
            "x": 0.3520520692484204,
            "y": -0.550298014708665,
            "z": 0.757120489450396
        },
        {
            "size": 2,
            "name": "dease lake",
            "lat": 58.422,
            "long": -130.032,
            "axis": "y",
            "lesser": 102,
            "greater": -1,
            "least": -0.4632615239134505,
            "greatest": -0.40095787879473205,
            "x": -0.3368253957852674,
            "y": -0.40095787879473205,
            "z": 0.851928067495447
        },
        {
            "size": 2,
            "name": "dauphin",
            "lat": 51.101,
            "long": -100.052,
            "axis": "y",
            "lesser": 34,
            "greater": -1,
            "least": -0.6342999210792636,
            "greatest": -0.6183102928239137,
            "x": -0.10960348762321305,
            "y": -0.6183102928239137,
            "z": 0.7782541084304241
        },
        {
            "size": 2,
            "name": "dawson creek",
            "lat": 55.742,
            "long": -120.182,
            "axis": "z",
            "lesser": 125,
            "greater": 94,
            "least": 0.7899731244143201,
            "greatest": 0.8550657561640924,
            "x": -0.283007299261631,
            "y": -0.4866067952112549,
            "z": 0.8265111586777698
        },
        {
            "size": 0,
            "name": "edmonton",
            "lat": 53.667,
            "long": -113.467,
            "axis": "y",
            "lesser": 177,
            "greater": -1,
            "least": -0.5734098965434099,
            "greatest": -0.5434732218771967,
            "x": -0.23593677760691537,
            "y": -0.5434732218771967,
            "z": 0.8055871734796205
        },
        {
            "size": 2,
            "name": "eskimo point",
            "lat": 61.094,
            "long": -94.071,
            "axis": "z",
            "lesser": 33,
            "greater": 2653,
            "least": 0.4725661464440274,
            "greatest": 0.9510241508964831,
            "x": -0.0343159739966292,
            "y": -0.48215443052764,
            "z": 0.8754139129870109
        },
        {
            "size": 2,
            "name": "estevan",
            "lat": 49.21,
            "long": -102.966,
            "axis": "z",
            "lesser": -1,
            "greater": -1,
            "least": 0.7571090875308834,
            "greatest": 0.7571090875308834,
            "x": -0.1465801717987793,
            "y": -0.6366318267362963,
            "z": 0.7571090875308834
        },
        {
            "size": 2,
            "name": "edson",
            "lat": 53.579,
            "long": -116.465,
            "axis": "x",
            "lesser": 122,
            "greater": 134,
            "least": -0.36985398072448766,
            "greatest": -0.21217616400354153,
            "x": -0.26458920059079716,
            "y": -0.5314966579464024,
            "z": 0.8046762439158545
        },
        {
            "size": 2,
            "name": "eureka",
            "lat": 79.995,
            "long": -85.813,
            "axis": "y",
            "lesser": 9,
            "greater": 666,
            "least": -0.3975484818754078,
            "greatest": 0.17337762552317962,
            "x": 0.01268466007210949,
            "y": -0.17327043328266845,
            "z": 0.9847925956001555
        },
        {
            "size": 2,
            "name": "inuvik",
            "lat": 68.304,
            "long": -133.483,
            "axis": "z",
            "lesser": -1,
            "greater": -1,
            "least": 0.9291583824630475,
            "greatest": 0.9291583824630475,
            "x": -0.254392645790782,
            "y": -0.26823326055174246,
            "z": 0.9291583824630475
        },
        {
            "size": 2,
            "name": "iqaluit",
            "lat": 63.756,
            "long": -68.556,
            "axis": "z",
            "lesser": -1,
            "greater": -1,
            "least": 0.8969190529782805,
            "greatest": 0.8969190529782805,
            "x": 0.16166272626369482,
            "y": -0.4115839833394081,
            "z": 0.8969190529782805
        },
        {
            "size": 2,
            "name": "fredericton",
            "lat": 45.869,
            "long": -66.532,
            "axis": "x",
            "lesser": 1485,
            "greater": 201,
            "least": 0.22042707803439784,
            "greatest": 0.29984798261444734,
            "x": 0.27729279359686043,
            "y": -0.6387050346297037,
            "z": 0.7177496676125444
        },
        {
            "size": 2,
            "name": "forestville",
            "lat": 48.746,
            "long": -69.097,
            "axis": "x",
            "lesser": 31,
            "greater": 39,
            "least": 0.21649015177181177,
            "greatest": 0.2686708781033173,
            "x": 0.23526468497835584,
            "y": -0.6160005263282531,
            "z": 0.7517937746252958
        },
        {
            "size": 2,
            "name": "flin flon",
            "lat": 54.678,
            "long": -101.682,
            "axis": "z",
            "lesser": 88,
            "greater": 184,
            "least": 0.7962026818516554,
            "greatest": 0.8373754253022075,
            "x": -0.11706785482085448,
            "y": -0.5661949945588048,
            "z": 0.8159156485226878
        },
        {
            "size": 2,
            "name": "fort resolution",
            "lat": 61.181,
            "long": -113.69,
            "axis": "z",
            "lesser": -1,
            "greater": -1,
            "least": 0.876146876296296,
            "greatest": 0.876146876296296,
            "x": -0.19367957126684118,
            "y": -0.44142369083470767,
            "z": 0.876146876296296
        },
        {
            "size": 2,
            "name": "fort simpson",
            "lat": 61.76,
            "long": -121.237,
            "axis": "x",
            "lesser": 202,
            "greater": 193,
            "least": -0.3202216360975602,
            "greatest": -0.19128087350727271,
            "x": -0.24537403575929348,
            "y": -0.40457084200826643,
            "z": 0.8809733346543012
        },
        {
            "size": 0,
            "name": "kingston",
            "lat": 44.225,
            "long": -76.597,
            "axis": "x",
            "lesser": 86,
            "greater": 1561,
            "least": 0.1274547795089711,
            "greatest": 0.21197020076253728,
            "x": 0.16610851750050568,
            "y": -0.6970886689090924,
            "z": 0.6974778477430907
        },
        {
            "size": 2,
            "name": "la grande riviere",
            "lat": 53.625,
            "long": -77.704,
            "axis": "z",
            "lesser": -1,
            "greater": -1,
            "least": 0.8051526485628583,
            "greatest": 0.8051526485628583,
            "x": 0.12630097224744818,
            "y": -0.5794629210929408,
            "z": 0.8051526485628583
        },
        {
            "size": 2,
            "name": "gaspe",
            "lat": 48.775,
            "long": -64.479,
            "axis": "y",
            "lesser": 68,
            "greater": -1,
            "least": -0.59612720987077,
            "greatest": -0.5947156517344491,
            "x": 0.28393242672812197,
            "y": -0.5947156517344491,
            "z": 0.7521274297845738
        },
        {
            "size": 2,
            "name": "geraldton",
            "lat": 49.778,
            "long": -86.939,
            "axis": "z",
            "lesser": -1,
            "greater": -1,
            "least": 0.7635481343753355,
            "greatest": 0.7635481343753355,
            "x": 0.03448252950446594,
            "y": -0.6448295911718988,
            "z": 0.7635481343753355
        },
        {
            "size": 2,
            "name": "iles de la madeleine",
            "lat": 47.425,
            "long": -61.778,
            "axis": "z",
            "lesser": -1,
            "greater": -1,
            "least": 0.73639235989658,
            "greatest": 0.73639235989658,
            "x": 0.31993537150124013,
            "y": -0.59612720987077,
            "z": 0.73639235989658
        },
        {
            "size": 2,
            "name": "kuujjuararapik",
            "lat": 55.283,
            "long": -77.767,
            "axis": "y",
            "lesser": 65,
            "greater": -1,
            "least": -0.5794629210929408,
            "greatest": -0.5565918444917711,
            "x": 0.12067501753040381,
            "y": -0.5565918444917711,
            "z": 0.8219750962099063
        },
        {
            "size": 2,
            "name": "gillam",
            "lat": 56.35,
            "long": -94.7,
            "axis": "y",
            "lesser": 144,
            "greater": -1,
            "least": -0.5567830363144788,
            "greatest": -0.552254914176768,
            "x": -0.04540361885853814,
            "y": -0.552254914176768,
            "z": 0.8324379983891649
        },
        {
            "size": 2,
            "name": "hudson bay",
            "lat": 52.817,
            "long": -102.311,
            "axis": "z",
            "lesser": -1,
            "greater": -1,
            "least": 0.796709271129087,
            "greatest": 0.796709271129087,
            "x": -0.12886099429575698,
            "y": -0.5904652245865695,
            "z": 0.796709271129087
        },
        {
            "size": 2,
            "name": "dryden",
            "lat": 49.832,
            "long": -92.744,
            "axis": "y",
            "lesser": 1437,
            "greater": -1,
            "least": -0.660590011917764,
            "greatest": -0.6442914137502787,
            "x": -0.030879910487825506,
            "y": -0.6442914137502787,
            "z": 0.7641564010697883
        },
        {
            "size": 2,
            "name": "holman island",
            "lat": 70.763,
            "long": -117.806,
            "axis": "x",
            "lesser": 156,
            "greater": 35,
            "least": -0.250483196970386,
            "greatest": -0.03713023457066044,
            "x": -0.15369392473516452,
            "y": -0.2914324883680835,
            "z": 0.944163800525676
        },
        {
            "size": 2,
            "name": "gjoa haven",
            "lat": 68.636,
            "long": -95.85,
            "axis": "z",
            "lesser": -1,
            "greater": -1,
            "least": 0.9312848909094262,
            "greatest": 0.9312848909094262,
            "x": -0.03713023457066044,
            "y": -0.36239453313280784,
            "z": 0.9312848909094262
        },
        {
            "size": 0,
            "name": "hamilton",
            "lat": 43.173,
            "long": -79.935,
            "axis": "z",
            "lesser": -1,
            "greater": -1,
            "least": 0.6842035115613607,
            "greatest": 0.6842035115613607,
            "x": 0.1274547795089711,
            "y": -0.718067429944725,
            "z": 0.6842035115613607
        },
        {
            "size": 2,
            "name": "montreal",
            "lat": 45.517,
            "long": -73.417,
            "axis": "y",
            "lesser": 80,
            "greater": -1,
            "least": -0.6737314884092285,
            "greatest": -0.6715537007980095,
            "x": 0.19998191042341076,
            "y": -0.6715537007980095,
            "z": 0.7134583817209665
        },
        {
            "size": 2,
            "name": "hay river",
            "lat": 60.84,
            "long": -115.783,
            "axis": "z",
            "lesser": -1,
            "greater": -1,
            "least": 0.8732624548099202,
            "greatest": 0.8732624548099202,
            "x": -0.21193623945097667,
            "y": -0.4387433366180395,
            "z": 0.8732624548099202
        },
        {
            "size": 2,
            "name": "atikokan",
            "lat": 48.774,
            "long": -91.639,
            "axis": "y",
            "lesser": 124,
            "greater": -1,
            "least": -0.6642453413411882,
            "greatest": -0.6587612032101552,
            "x": -0.01884962952810693,
            "y": -0.6587612032101552,
            "z": 0.752115927641319
        },
        {
            "size": 2,
            "name": "pond inlet",
            "lat": 72.683,
            "long": -77.967,
            "axis": "x",
            "lesser": 140,
            "greater": 12,
            "least": -0.02180145177294017,
            "greatest": 0.12233281641244612,
            "x": 0.06205429021064283,
            "y": -0.29111790718621733,
            "z": 0.9546725245768678
        },
        {
            "size": 2,
            "name": "st. jean",
            "lat": 45.294,
            "long": -73.281,
            "axis": "z",
            "lesser": -1,
            "greater": -1,
            "least": 0.7107258106547021,
            "greatest": 0.7107258106547021,
            "x": 0.20237268490362598,
            "y": -0.6737314884092285,
            "z": 0.7107258106547021
        },
        {
            "size": 2,
            "name": "stephenville",
            "lat": 48.544,
            "long": -58.55,
            "axis": "x",
            "lesser": 66,
            "greater": 188,
            "least": 0.28393242672812197,
            "greatest": 0.4079842044374899,
            "x": 0.34542466500400537,
            "y": -0.5647875534648752,
            "z": 0.7494643555620449
        },
        {
            "size": 2,
            "name": "kamloops",
            "lat": 50.702,
            "long": -120.442,
            "axis": "z",
            "lesser": -1,
            "greater": -1,
            "least": 0.7738623184183443,
            "greatest": 0.7738623184183443,
            "x": -0.32089879320135534,
            "y": -0.5460412774269898,
            "z": 0.7738623184183443
        },
        {
            "size": 2,
            "name": "waterloo",
            "lat": 43.459,
            "long": -80.384,
            "axis": "z",
            "lesser": 1431,
            "greater": 1424,
            "least": 0.6808614945532634,
            "greatest": 0.7090047913117806,
            "x": 0.1212517470004909,
            "y": -0.7156679182669595,
            "z": 0.687835332483557
        },
        {
            "size": 2,
            "name": "schefferville",
            "lat": 54.805,
            "long": -66.805,
            "axis": "y",
            "lesser": 2335,
            "greater": 2596,
            "least": -0.9999578305048018,
            "greatest": 0.9907709862995202,
            "x": 0.2270065241759779,
            "y": -0.529773579597898,
            "z": 0.8171951984327678
        },
        {
            "size": 2,
            "name": "kindersley",
            "lat": 51.517,
            "long": -109.181,
            "axis": "x",
            "lesser": 47,
            "greater": 185,
            "least": -0.38287489502733785,
            "greatest": -0.030879910487825506,
            "x": -0.20445303816419896,
            "y": -0.5877366301464665,
            "z": 0.782792826212341
        },
        {
            "size": 0,
            "name": "toronto",
            "lat": 43.862,
            "long": -79.37,
            "axis": "y",
            "lesser": 75,
            "greater": -1,
            "least": -0.718067429944725,
            "greatest": -0.7086374939971801,
            "x": 0.1330019767848289,
            "y": -0.7086374939971801,
            "z": 0.6929237882139163
        },
        {
            "size": 2,
            "name": "chapleau",
            "lat": 47.82,
            "long": -83.346,
            "axis": "x",
            "lesser": 78,
            "greater": 146,
            "least": -0.01884962952810693,
            "greatest": 0.11862510639404351,
            "x": 0.07780453386297587,
            "y": -0.6669389902011091,
            "z": 0.7410390258683344
        },
        {
            "size": 2,
            "name": "meadow lake",
            "lat": 54.125,
            "long": -108.523,
            "axis": "x",
            "lesser": 101,
            "greater": 104,
            "least": -0.20173449745313984,
            "greatest": -0.12886099429575698,
            "x": -0.18616958254023294,
            "y": -0.5556608527644544,
            "z": 0.8102974165341235
        },
        {
            "size": 2,
            "name": "lloydminster",
            "lat": 53.309,
            "long": -110.072,
            "axis": "y",
            "lesser": 41,
            "greater": -1,
            "least": -0.5720780058734184,
            "greatest": -0.5612083407996664,
            "x": -0.205062157913076,
            "y": -0.5612083407996664,
            "z": 0.8018695090904244
        },
        {
            "size": 2,
            "name": "alert",
            "lat": 82.518,
            "long": -62.281,
            "axis": "z",
            "lesser": -1,
            "greater": -1,
            "least": 0.9914858184599514,
            "greatest": 0.9914858184599514,
            "x": 0.06056750283646429,
            "y": -0.11527119932123192,
            "z": 0.9914858184599514
        },
        {
            "size": 2,
            "name": "kelowna",
            "lat": 49.956,
            "long": -119.378,
            "axis": "z",
            "lesser": 1336,
            "greater": 166,
            "least": 0.7494528005881519,
            "greatest": 0.8018695090904244,
            "x": -0.31562029945004527,
            "y": -0.5606390263923176,
            "z": 0.7655505918363189
        },
        {
            "size": 2,
            "name": "mayo",
            "lat": 63.617,
            "long": -135.867,
            "axis": "z",
            "lesser": -1,
            "greater": -1,
            "least": 0.8958436467241369,
            "greatest": 0.8958436467241369,
            "x": -0.31893518588427194,
            "y": -0.30942609429226353,
            "z": 0.8958436467241369
        },
        {
            "size": 2,
            "name": "moose jaw",
            "lat": 50.33,
            "long": -105.559,
            "axis": "y",
            "lesser": 123,
            "greater": -1,
            "least": -0.6162391359789589,
            "greatest": -0.6149718362347923,
            "x": -0.17122894647724882,
            "y": -0.6149718362347923,
            "z": 0.7697339076111297
        },
        {
            "size": 2,
            "name": "fort mcmurray",
            "lat": 56.653,
            "long": -111.222,
            "axis": "x",
            "lesser": 167,
            "greater": 112,
            "least": -0.28406488759903253,
            "greatest": -0.036786499996026734,
            "x": -0.19898478310941892,
            "y": -0.512429718257871,
            "z": 0.8353567141868535
        },
        {
            "size": 2,
            "name": "moosonee",
            "lat": 51.291,
            "long": -80.608,
            "axis": "x",
            "lesser": 108,
            "greater": 69,
            "least": -0.0023278434906211184,
            "greatest": 0.12630097224744818,
            "x": 0.10205223333478204,
            "y": -0.6169821901801948,
            "z": 0.7803321848237667
        },
        {
            "size": 2,
            "name": "maniwaki",
            "lat": 46.274,
            "long": -75.99,
            "axis": "y",
            "lesser": 176,
            "greater": -1,
            "least": -0.6783494415510001,
            "greatest": -0.6706493133121273,
            "x": 0.16733598606763958,
            "y": -0.6706493133121273,
            "z": 0.722653558989882
        },
        {
            "size": 2,
            "name": "natashquan",
            "lat": 50.19,
            "long": -61.789,
            "axis": "z",
            "lesser": -1,
            "greater": -1,
            "least": 0.7681717916741637,
            "greatest": 0.7681717916741637,
            "x": 0.3026560106458674,
            "y": -0.5641909585380058,
            "z": 0.7681717916741637
        },
        {
            "size": 2,
            "name": "gatineau",
            "lat": 45.521,
            "long": -75.564,
            "axis": "x",
            "lesser": 160,
            "greater": 76,
            "least": 0.09004023891123078,
            "greatest": 0.20237268490362598,
            "x": 0.1746703865860571,
            "y": -0.678526043633012,
            "z": 0.7135072979035386
        },
        {
            "size": 2,
            "name": "matagami",
            "lat": 49.762,
            "long": -77.803,
            "axis": "y",
            "lesser": 154,
            "greater": -1,
            "least": -0.6533047670308421,
            "greatest": -0.6313827392795044,
            "x": 0.13647517606534587,
            "y": -0.6313827392795044,
            "z": 0.7633677769318287
        },
        {
            "size": 2,
            "name": "old crow",
            "lat": 67.571,
            "long": -139.839,
            "axis": "z",
            "lesser": -1,
            "greater": -1,
            "least": 0.9243530381442225,
            "greatest": 0.9243530381442225,
            "x": -0.29158498578812864,
            "y": -0.24606839889852247,
            "z": 0.9243530381442225
        },
        {
            "size": 2,
            "name": "cold lake",
            "lat": 54.405,
            "long": -110.279,
            "axis": "y",
            "lesser": 127,
            "greater": -1,
            "least": -0.5746162917772727,
            "greatest": -0.5459741171927783,
            "x": -0.20173449745313984,
            "y": -0.5459741171927783,
            "z": 0.8131515577633086
        },
        {
            "size": 2,
            "name": "high level",
            "lat": 58.621,
            "long": -117.165,
            "axis": "z",
            "lesser": -1,
            "greater": -1,
            "least": 0.8537416999433469,
            "greatest": 0.8537416999433469,
            "x": -0.237726460957193,
            "y": -0.4632615239134505,
            "z": 0.8537416999433469
        },
        {
            "size": 0,
            "name": "ottawa",
            "lat": 45.323,
            "long": -75.669,
            "axis": "y",
            "lesser": -1,
            "greater": -1,
            "least": -0.6812299223707294,
            "greatest": -0.6812299223707294,
            "x": 0.17403591244823102,
            "y": -0.6812299223707294,
            "z": 0.7110817773259849
        },
        {
            "size": 2,
            "name": "prince albert",
            "lat": 53.214,
            "long": -105.673,
            "axis": "y",
            "lesser": 71,
            "greater": -1,
            "least": -0.5904652245865695,
            "greatest": -0.5765629979782627,
            "x": -0.16177142264190056,
            "y": -0.5765629979782627,
            "z": 0.8008777161207155
        },
        {
            "size": 2,
            "name": "peace river",
            "lat": 56.227,
            "long": -117.447,
            "axis": "z",
            "lesser": -1,
            "greater": -1,
            "least": 0.8312465251307198,
            "greatest": 0.8312465251307198,
            "x": -0.2562316506229234,
            "y": -0.49333006768000226,
            "z": 0.8312465251307198
        },
        {
            "size": 2,
            "name": "portage-la-prairie",
            "lat": 49.903,
            "long": -98.275,
            "axis": "z",
            "lesser": 118,
            "greater": 126,
            "least": 0.749718507221586,
            "greatest": 0.7800483227466172,
            "x": -0.09269935869729398,
            "y": -0.637377818835827,
            "z": 0.7649551261042663
        },
        {
            "size": 2,
            "name": "pitt meadows",
            "lat": 49.216,
            "long": -122.71,
            "axis": "z",
            "lesser": 1300,
            "greater": 55,
            "least": 0.7523229311630472,
            "greatest": 0.8046762439158545,
            "x": -0.3529858721087055,
            "y": -0.5496209732771508,
            "z": 0.7571774955884083
        },
        {
            "size": 2,
            "name": "pickle lake",
            "lat": 51.446,
            "long": -90.214,
            "axis": "y",
            "lesser": 190,
            "greater": -1,
            "least": -0.6387864823966711,
            "greatest": -0.6232476036023866,
            "x": -0.0023278434906211184,
            "y": -0.6232476036023866,
            "z": 0.7820211031350532
        },
        {
            "size": 2,
            "name": "port menier",
            "lat": 49.836,
            "long": -64.289,
            "axis": "x",
            "lesser": 161,
            "greater": 48,
            "least": 0.23688910667151075,
            "greatest": 0.3520520692484204,
            "x": 0.2798119909908055,
            "y": -0.581120833182832,
            "z": 0.7642014308666613
        },
        {
            "size": 2,
            "name": "peterborough",
            "lat": 44.23,
            "long": -78.363,
            "axis": "y",
            "lesser": 1533,
            "greater": -1,
            "least": -0.7091101691622239,
            "greatest": -0.7018170220252234,
            "x": 0.14453471820260552,
            "y": -0.7018170220252234,
            "z": 0.6975403807879084
        },
        {
            "size": 2,
            "name": "prince pupert",
            "lat": 54.286,
            "long": -130.445,
            "axis": "z",
            "lesser": -1,
            "greater": -1,
            "least": 0.8119409166340665,
            "greatest": 0.8119409166340665,
            "x": -0.3786822911898157,
            "y": -0.4442428054956695,
            "z": 0.8119409166340665
        },
        {
            "size": 2,
            "name": "fort chipewyan",
            "lat": 58.767,
            "long": -111.117,
            "axis": "y",
            "lesser": 186,
            "greater": -1,
            "least": -0.5176318746664813,
            "greatest": -0.4836992670212362,
            "x": -0.18680891766360538,
            "y": -0.4836992670212362,
            "z": 0.8550657561640924
        },
        {
            "size": 2,
            "name": "muskoka",
            "lat": 44.975,
            "long": -79.303,
            "axis": "z",
            "lesser": 1402,
            "greater": 98,
            "least": 0.6945579249043099,
            "greatest": 0.7187575923409728,
            "x": 0.13130699832669077,
            "y": -0.695122150739028,
            "z": 0.7067981803473906
        },
        {
            "size": 2,
            "name": "quebec",
            "lat": 46.788,
            "long": -71.398,
            "axis": "z",
            "lesser": -1,
            "greater": -1,
            "least": 0.7288252402237871,
            "greatest": 0.7288252402237871,
            "x": 0.2184140163937493,
            "y": -0.6489291846230141,
            "z": 0.7288252402237871
        },
        {
            "size": 2,
            "name": "red deer industrial",
            "lat": 52.179,
            "long": -113.893,
            "axis": "y",
            "lesser": 44,
            "greater": -1,
            "least": -0.5743483858591637,
            "greatest": -0.560647782081395,
            "x": -0.2483629572040238,
            "y": -0.560647782081395,
            "z": 0.7899303171394835
        },
        {
            "size": 1,
            "name": "windsor",
            "lat": 42.276,
            "long": -82.956,
            "axis": "y",
            "lesser": 1528,
            "greater": -1,
            "least": -0.749348575920201,
            "greatest": -0.7343282778344188,
            "x": 0.09073665461963627,
            "y": -0.7343282778344188,
            "z": 0.6727026385269894
        },
        {
            "size": 2,
            "name": "watson lake",
            "lat": 60.118,
            "long": -128.822,
            "axis": "y",
            "lesser": 77,
            "greater": -1,
            "least": -0.4387433366180395,
            "greatest": -0.3881582551960596,
            "x": -0.31233271576177457,
            "y": -0.3881582551960596,
            "z": 0.8670533106954988
        },
        {
            "size": 2,
            "name": "kenora",
            "lat": 49.788,
            "long": -94.363,
            "axis": "x",
            "lesser": 1544,
            "greater": 72,
            "least": -0.1465801717987793,
            "greatest": -0.030879910487825506,
            "x": -0.049115454874712666,
            "y": -0.6437466990756207,
            "z": 0.7636608275417119
        },
        {
            "size": 2,
            "name": "lethbridge",
            "lat": 49.63,
            "long": -112.8,
            "axis": "y",
            "lesser": 1428,
            "greater": -1,
            "least": -0.623066030589975,
            "greatest": -0.5971101885197008,
            "x": -0.2510020109622786,
            "y": -0.5971101885197008,
            "z": 0.7618775579178453
        },
        {
            "size": 2,
            "name": "moncton",
            "lat": 46.112,
            "long": -64.679,
            "axis": "z",
            "lesser": 1537,
            "greater": 133,
            "least": 0.6533545412214359,
            "greatest": 0.8219750962099063,
            "x": 0.2964959221094386,
            "y": -0.6266474129707218,
            "z": 0.7206963216151276
        },
        {
            "size": 2,
            "name": "nakina",
            "lat": 50.183,
            "long": -86.696,
            "axis": "z",
            "lesser": 189,
            "greater": 95,
            "least": 0.7437634696526176,
            "greatest": 0.8219750962099063,
            "x": 0.0369050421264609,
            "y": -0.6392732535037279,
            "z": 0.7680935654074982
        },
        {
            "size": 2,
            "name": "comox",
            "lat": 49.711,
            "long": -124.887,
            "axis": "y",
            "lesser": 82,
            "greater": -1,
            "least": -0.5460412774269898,
            "greatest": -0.5304296839245172,
            "x": -0.36985398072448766,
            "y": -0.5304296839245172,
            "z": 0.7627924903628687
        },
        {
            "size": 2,
            "name": "regina",
            "lat": 50.432,
            "long": -104.666,
            "axis": "z",
            "lesser": -1,
            "greater": -1,
            "least": 0.7708691273001393,
            "greatest": 0.7708691273001393,
            "x": -0.1612765198763535,
            "y": -0.6162391359789589,
            "z": 0.7708691273001393
        },
        {
            "size": 2,
            "name": "thunder bay",
            "lat": 48.372,
            "long": -89.324,
            "axis": "z",
            "lesser": -1,
            "greater": -1,
            "least": 0.7474735456616265,
            "greatest": 0.7474735456616265,
            "x": 0.007837413002051567,
            "y": -0.6642453413411882,
            "z": 0.7474735456616265
        },
        {
            "size": 2,
            "name": "grande prairie",
            "lat": 55.18,
            "long": -118.885,
            "axis": "x",
            "lesser": 130,
            "greater": 194,
            "least": -0.3254053959155339,
            "greatest": -0.23862912964247318,
            "x": -0.27582344160307204,
            "y": -0.4999626195846278,
            "z": 0.8209499424936416
        },
        {
            "size": 2,
            "name": "yorkton",
            "lat": 51.265,
            "long": -102.462,
            "axis": "x",
            "lesser": 93,
            "greater": 50,
            "least": -0.17122894647724882,
            "greatest": -0.10960348762321305,
            "x": -0.13502525333494036,
            "y": -0.6109769186655292,
            "z": 0.7800483227466172
        },
        {
            "size": 2,
            "name": "north battleford",
            "lat": 52.769,
            "long": -108.244,
            "axis": "z",
            "lesser": -1,
            "greater": -1,
            "least": 0.7962026818516554,
            "greatest": 0.7962026818516554,
            "x": -0.18941332222514784,
            "y": -0.5746162917772727,
            "z": 0.7962026818516554
        },
        {
            "size": 2,
            "name": "gander",
            "lat": 48.937,
            "long": -54.568,
            "axis": "z",
            "lesser": 81,
            "greater": 109,
            "least": 0.7324834918958857,
            "greatest": 0.7978154852638425,
            "x": 0.38082211931718846,
            "y": -0.5352354500184426,
            "z": 0.7539877495571929
        },
        {
            "size": 0,
            "name": "sydney",
            "lat": 46.161,
            "long": -60.048,
            "axis": "z",
            "lesser": -1,
            "greater": -1,
            "least": 0.7212889340167673,
            "greatest": 0.7212889340167673,
            "x": 0.34581450871453423,
            "y": -0.6001288188609849,
            "z": 0.7212889340167673
        },
        {
            "size": 2,
            "name": "quesnel",
            "lat": 53.026,
            "long": -122.51,
            "axis": "y",
            "lesser": 162,
            "greater": 171,
            "least": -0.5196670001184718,
            "greatest": -0.4960622791070489,
            "x": -0.3232487492147482,
            "y": -0.5072035275127239,
            "z": 0.7989085228045514
        },
        {
            "size": 2,
            "name": "resolute",
            "lat": 74.717,
            "long": -94.969,
            "axis": "x",
            "lesser": 3390,
            "greater": 430,
            "least": -0.880374666783022,
            "greatest": 0.42898372004190827,
            "x": -0.022831032676514647,
            "y": -0.2625962120828782,
            "z": 0.9646356687095123
        },
        {
            "size": 2,
            "name": "riviere du loup",
            "lat": 47.764,
            "long": -69.585,
            "axis": "z",
            "lesser": -1,
            "greater": -1,
            "least": 0.7403823955918224,
            "greatest": 0.7403823955918224,
            "x": 0.23447015445167618,
            "y": -0.6299663919362057,
            "z": 0.7403823955918224
        },
        {
            "size": 2,
            "name": "roberval",
            "lat": 48.52,
            "long": -72.266,
            "axis": "x",
            "lesser": 150,
            "greater": 30,
            "least": -0.02618616659767371,
            "greatest": 0.4079842044374899,
            "x": 0.2017533139109717,
            "y": -0.6308838875216559,
            "z": 0.7491869731859354
        },
        {
            "size": 2,
            "name": "rocky mountain house",
            "lat": 52.43,
            "long": -114.904,
            "axis": "y",
            "lesser": 152,
            "greater": -1,
            "least": -0.5578536687329142,
            "greatest": -0.5530342394055284,
            "x": -0.25675687655675766,
            "y": -0.5530342394055284,
            "z": 0.7926090059959995
        },
        {
            "size": 2,
            "name": "rankin inlet",
            "lat": 62.811,
            "long": -92.116,
            "axis": "y",
            "lesser": 155,
            "greater": 58,
            "least": -0.4914762703197774,
            "greatest": -0.4115839833394081,
            "x": -0.016871017644021075,
            "y": -0.45661559435197613,
            "z": 0.8895041134015327
        },
        {
            "size": 2,
            "name": "sudbury",
            "lat": 46.625,
            "long": -80.799,
            "axis": "x",
            "lesser": 1490,
            "greater": 96,
            "least": 0.02926310948426831,
            "greatest": 0.16733598606763958,
            "x": 0.10981350220415305,
            "y": -0.6779340682927579,
            "z": 0.7268744002795041
        },
        {
            "size": 2,
            "name": "sherbrooke",
            "lat": 45.438,
            "long": -71.691,
            "axis": "z",
            "lesser": -1,
            "greater": -1,
            "least": 0.7124915748981371,
            "greatest": 0.7124915748981371,
            "x": 0.22042707803439784,
            "y": -0.6661588841773334,
            "z": 0.7124915748981371
        },
        {
            "size": 2,
            "name": "st. john",
            "lat": 45.316,
            "long": -65.89,
            "axis": "z",
            "lesser": -1,
            "greater": -1,
            "least": 0.7109958710117185,
            "greatest": 0.7109958710117185,
            "x": 0.28724844960619444,
            "y": -0.6418513843586577,
            "z": 0.7109958710117185
        },
        {
            "size": 2,
            "name": "fort smith",
            "lat": 60.022,
            "long": -111.96,
            "axis": "y",
            "lesser": 51,
            "greater": 179,
            "least": -0.5274196550195491,
            "greatest": -0.3455379595860847,
            "x": -0.18685523647720648,
            "y": -0.46341413926174135,
            "z": 0.8662173261562867
        },
        {
            "size": 2,
            "name": "nanisivik",
            "lat": 72.982,
            "long": -84.614,
            "axis": "y",
            "lesser": 182,
            "greater": -1,
            "least": -0.3487581487761464,
            "greatest": -0.29137995434784975,
            "x": 0.027471683050727034,
            "y": -0.29137995434784975,
            "z": 0.9562128574928311
        },
        {
            "size": 2,
            "name": "summerside",
            "lat": 46.443,
            "long": -63.831,
            "axis": "z",
            "lesser": -1,
            "greater": -1,
            "least": 0.7246892111083232,
            "greatest": 0.7246892111083232,
            "x": 0.30389646158751527,
            "y": -0.6184436012586629,
            "z": 0.7246892111083232
        },
        {
            "size": 2,
            "name": "sachs harbour",
            "lat": 71.994,
            "long": -125.243,
            "axis": "z",
            "lesser": -1,
            "greater": -1,
            "least": 0.9510241508964831,
            "greatest": 0.9510241508964831,
            "x": -0.1783743090133044,
            "y": -0.25245924482111876,
            "z": 0.9510241508964831
        },
        {
            "size": 2,
            "name": "cape dorset",
            "lat": 64.23,
            "long": -76.527,
            "axis": "z",
            "lesser": -1,
            "greater": -1,
            "least": 0.9005465344487658,
            "greatest": 0.9005465344487658,
            "x": 0.10129339475001815,
            "y": -0.4227949709638645,
            "z": 0.9005465344487658
        },
        {
            "size": 2,
            "name": "thompson",
            "lat": 55.801,
            "long": -97.864,
            "axis": "z",
            "lesser": -1,
            "greater": -1,
            "least": 0.827090384354204,
            "greatest": 0.827090384354204,
            "x": -0.07690348874560123,
            "y": -0.5567830363144788,
            "z": 0.827090384354204
        },
        {
            "size": 2,
            "name": "trenton",
            "lat": 44.119,
            "long": -77.528,
            "axis": "z",
            "lesser": -1,
            "greater": -1,
            "least": 0.696150898022749,
            "greatest": 0.696150898022749,
            "x": 0.1550384892033172,
            "y": -0.7009543451949443,
            "z": 0.696150898022749
        },
        {
            "size": 2,
            "name": "timmins",
            "lat": 48.57,
            "long": -81.377,
            "axis": "y",
            "lesser": 170,
            "greater": -1,
            "least": -0.6625411740872632,
            "greatest": -0.6542248052031685,
            "x": 0.09921084508991988,
            "y": -0.6542248052031685,
            "z": 0.749764704739707
        },
        {
            "size": 2,
            "name": "tuktoyaktuk",
            "lat": 69.433,
            "long": -133.026,
            "axis": "y",
            "lesser": 57,
            "greater": -1,
            "least": -0.26823326055174246,
            "greatest": -0.2568176055030953,
            "x": -0.23970426538286485,
            "y": -0.2568176055030953,
            "z": 0.9362620267109617
        },
        {
            "size": 2,
            "name": "repulse bay",
            "lat": 66.521,
            "long": -86.225,
            "axis": "z",
            "lesser": -1,
            "greater": -1,
            "least": 0.9172061619516143,
            "greatest": 0.9172061619516143,
            "x": 0.026230917569685402,
            "y": -0.3975484818754078,
            "z": 0.9172061619516143
        },
        {
            "size": 2,
            "name": "hall beach",
            "lat": 68.776,
            "long": -81.244,
            "axis": "z",
            "lesser": -1,
            "greater": -1,
            "least": 0.9321722424816496,
            "greatest": 0.9321722424816496,
            "x": 0.05510842679316792,
            "y": -0.3577959916532249,
            "z": 0.9321722424816496
        },
        {
            "size": 2,
            "name": "rouyn",
            "lat": 48.206,
            "long": -78.836,
            "axis": "y",
            "lesser": 1351,
            "greater": 121,
            "least": -0.6894880228763274,
            "greatest": -0.5565918444917711,
            "x": 0.1290375418758589,
            "y": -0.653843085742663,
            "z": 0.7455457947122689
        },
        {
            "size": 2,
            "name": "la ronge",
            "lat": 55.151,
            "long": -105.262,
            "axis": "z",
            "lesser": -1,
            "greater": -1,
            "least": 0.8206608281932731,
            "greatest": 0.8206608281932731,
            "x": -0.15041560273603813,
            "y": -0.5512630511132461,
            "z": 0.8206608281932731
        },
        {
            "size": 2,
            "name": "vermillion",
            "lat": 53.356,
            "long": -110.824,
            "axis": "z",
            "lesser": -1,
            "greater": -1,
            "least": 0.8023593706749927,
            "greatest": 0.8023593706749927,
            "x": -0.21217616400354153,
            "y": -0.5578536687329142,
            "z": 0.8023593706749927
        },
        {
            "size": 2,
            "name": "broughton island",
            "lat": 67.546,
            "long": -64.031,
            "axis": "z",
            "lesser": -1,
            "greater": -1,
            "least": 0.9241864726763988,
            "greatest": 0.9241864726763988,
            "x": 0.1672464039860881,
            "y": -0.34337734939229514,
            "z": 0.9241864726763988
        },
        {
            "size": 2,
            "name": "val d'or",
            "lat": 48.053,
            "long": -77.783,
            "axis": "z",
            "lesser": -1,
            "greater": -1,
            "least": 0.7437634696526176,
            "greatest": 0.7437634696526176,
            "x": 0.14145240395651432,
            "y": -0.6533047670308421,
            "z": 0.7437634696526176
        },
        {
            "size": 2,
            "name": "quujjuaq",
            "lat": 58.096,
            "long": -68.427,
            "axis": "z",
            "lesser": -1,
            "greater": -1,
            "least": 0.8489347936049403,
            "greatest": 0.8489347936049403,
            "x": 0.19432136248878693,
            "y": -0.4914762703197774,
            "z": 0.8489347936049403
        },
        {
            "size": 2,
            "name": "norman wells",
            "lat": 65.282,
            "long": -126.8,
            "axis": "y",
            "lesser": 40,
            "greater": -1,
            "least": -0.34178894507240887,
            "greatest": -0.3348278001179619,
            "x": -0.250483196970386,
            "y": -0.3348278001179619,
            "z": 0.908376855882877
        },
        {
            "size": 0,
            "name": "vancouver",
            "lat": 49.195,
            "long": -123.182,
            "axis": "x",
            "lesser": 3389,
            "greater": 52,
            "least": -0.4698182857986256,
            "greatest": -0.23593677760691537,
            "x": -0.35765345859557457,
            "y": -0.5469267050368914,
            "z": 0.7569380310647053
        },
        {
            "size": 2,
            "name": "buffalo narrows",
            "lat": 55.842,
            "long": -108.418,
            "axis": "y",
            "lesser": 151,
            "greater": -1,
            "least": -0.5512630511132461,
            "greatest": -0.5327162997280326,
            "x": -0.17739702352170938,
            "y": -0.5327162997280326,
            "z": 0.8274923806596113
        },
        {
            "size": 2,
            "name": "wiarton",
            "lat": 44.746,
            "long": -81.107,
            "axis": "y",
            "lesser": 83,
            "greater": 113,
            "least": -0.7296362316337519,
            "greatest": -0.6715537007980095,
            "x": 0.10979492988183726,
            "y": -0.7016966236134236,
            "z": 0.7039651424479508
        },
        {
            "size": 2,
            "name": "petawawa",
            "lat": 45.952,
            "long": -77.319,
            "axis": "y",
            "lesser": 192,
            "greater": -1,
            "least": -0.6902528871248945,
            "greatest": -0.6783015375996208,
            "x": 0.15262551406038985,
            "y": -0.6783015375996208,
            "z": 0.7187575923409728
        },
        {
            "size": 2,
            "name": "wabush",
            "lat": 52.922,
            "long": -66.864,
            "axis": "y",
            "lesser": 199,
            "greater": -1,
            "least": -0.5856893529354742,
            "greatest": -0.5544132056630623,
            "x": 0.23688910667151075,
            "y": -0.5544132056630623,
            "z": 0.7978154852638425
        },
        {
            "size": 2,
            "name": "williams lake",
            "lat": 52.183,
            "long": -122.054,
            "axis": "z",
            "lesser": -1,
            "greater": -1,
            "least": 0.7899731244143201,
            "greatest": 0.7899731244143201,
            "x": -0.3254053959155339,
            "y": -0.5196670001184718,
            "z": 0.7899731244143201
        },
        {
            "size": 2,
            "name": "wrigley",
            "lat": 63.209,
            "long": -123.437,
            "axis": "z",
            "lesser": -1,
            "greater": -1,
            "least": 0.892656631118473,
            "greatest": 0.892656631118473,
            "x": -0.2483651682509405,
            "y": -0.37613678644862747,
            "z": 0.892656631118473
        },
        {
            "size": 2,
            "name": "cranbrook",
            "lat": 49.61,
            "long": -115.782,
            "axis": "z",
            "lesser": -1,
            "greater": -1,
            "least": 0.7616514141994832,
            "greatest": 0.7616514141994832,
            "x": -0.28184079186777045,
            "y": -0.5834834113214148,
            "z": 0.7616514141994832
        },
        {
            "size": 1,
            "name": "saskatoon",
            "lat": 52.171,
            "long": -106.7,
            "axis": "y",
            "lesser": -1,
            "greater": -1,
            "least": -0.5874391532226617,
            "greatest": -0.5874391532226617,
            "x": -0.17624019205917735,
            "y": -0.5874391532226617,
            "z": 0.7898446910399453
        },
        {
            "size": 2,
            "name": "medicine hat",
            "lat": 50.019,
            "long": -110.721,
            "axis": "x",
            "lesser": 115,
            "greater": 89,
            "least": -0.27856657945045654,
            "greatest": -0.205062157913076,
            "x": -0.22733972682528253,
            "y": -0.6009708847149221,
            "z": 0.7662575574387308
        },
        {
            "size": 2,
            "name": "fort saint john",
            "lat": 56.238,
            "long": -120.74,
            "axis": "y",
            "lesser": 105,
            "greater": -1,
            "least": -0.49333006768000226,
            "greatest": -0.4776598550310968,
            "x": -0.28406488759903253,
            "y": -0.4776598550310968,
            "z": 0.8313532357097195
        },
        {
            "size": 2,
            "name": "sioux lookout",
            "lat": 50.114,
            "long": -91.904,
            "axis": "y",
            "lesser": 67,
            "greater": -1,
            "least": -0.6448295911718988,
            "greatest": -0.6409081170299796,
            "x": -0.021305905141885434,
            "y": -0.6409081170299796,
            "z": 0.7673218646247291
        },
        {
            "size": 2,
            "name": "pangnirtung",
            "lat": 66.145,
            "long": -65.714,
            "axis": "x",
            "lesser": 29,
            "greater": 11,
            "least": 0.0012263047126949266,
            "greatest": 0.24736662818106503,
            "x": 0.16633597037864079,
            "y": -0.368633474222774,
            "z": 0.9145718706808358
        },
        {
            "size": 2,
            "name": "earlton",
            "lat": 47.695,
            "long": -79.849,
            "axis": "z",
            "lesser": -1,
            "greater": -1,
            "least": 0.7395723607410385,
            "greatest": 0.7395723607410385,
            "x": 0.11862510639404351,
            "y": -0.6625411740872632,
            "z": 0.7395723607410385
        },
        {
            "size": 2,
            "name": "prince george",
            "lat": 53.889,
            "long": -122.679,
            "axis": "z",
            "lesser": -1,
            "greater": -1,
            "least": 0.8078767514278516,
            "greatest": 0.8078767514278516,
            "x": -0.31820963176733275,
            "y": -0.4960622791070489,
            "z": 0.8078767514278516
        },
        {
            "size": 2,
            "name": "terrace",
            "lat": 54.466,
            "long": -128.577,
            "axis": "z",
            "lesser": -1,
            "greater": -1,
            "least": 0.8137707789653399,
            "greatest": 0.8137707789653399,
            "x": -0.3624077016313912,
            "y": -0.45435424186464507,
            "z": 0.8137707789653399
        },
        {
            "size": 1,
            "name": "london",
            "lat": 43.036,
            "long": -81.154,
            "axis": "y",
            "lesser": -1,
            "greater": -1,
            "least": -0.7222308656743078,
            "greatest": -0.7222308656743078,
            "x": 0.11240105954688255,
            "y": -0.7222308656743078,
            "z": 0.6824577484944238
        },
        {
            "size": 2,
            "name": "abbotsford",
            "lat": 49.025,
            "long": -122.363,
            "axis": "y",
            "lesser": 42,
            "greater": -1,
            "least": -0.5550272042547303,
            "greatest": -0.5538776468512921,
            "x": -0.35099991799565244,
            "y": -0.5538776468512921,
            "z": 0.7549957681242463
        },
        {
            "size": 2,
            "name": "whitehorse",
            "lat": 60.709,
            "long": -135.068,
            "axis": "y",
            "lesser": 2670,
            "greater": -1,
            "least": -0.3573219464575578,
            "greatest": -0.3455379595860847,
            "x": -0.34635911995599383,
            "y": -0.3455379595860847,
            "z": 0.8721461336888416
        },
        {
            "size": 2,
            "name": "north bay",
            "lat": 46.364,
            "long": -79.423,
            "axis": "z",
            "lesser": -1,
            "greater": -1,
            "least": 0.723738417781712,
            "greatest": 0.723738417781712,
            "x": 0.12666782454226638,
            "y": -0.6783494415510001,
            "z": 0.723738417781712
        },
        {
            "size": 0,
            "name": "calgary",
            "lat": 51.114,
            "long": -114.02,
            "axis": "z",
            "lesser": -1,
            "greater": -1,
            "least": 0.7783965656131012,
            "greatest": 0.7783965656131012,
            "x": -0.2555384064828707,
            "y": -0.5734098965434099,
            "z": 0.7783965656131012
        },
        {
            "size": 2,
            "name": "smithers",
            "lat": 54.825,
            "long": -127.183,
            "axis": "x",
            "lesser": 2674,
            "greater": 49,
            "least": -0.3682313796624367,
            "greatest": -0.237726460957193,
            "x": -0.3481587048428603,
            "y": -0.45896486268240083,
            "z": 0.8173963365865221
        },
        {
            "size": 2,
            "name": "fort nelson",
            "lat": 58.836,
            "long": -122.597,
            "axis": "z",
            "lesser": 178,
            "greater": 200,
            "least": 0.8137707789653399,
            "greatest": 0.8732624548099202,
            "x": -0.2787853785896642,
            "y": -0.43597483877207316,
            "z": 0.8556895772663603
        },
        {
            "size": 2,
            "name": "penticton",
            "lat": 49.463,
            "long": -119.602,
            "axis": "z",
            "lesser": -1,
            "greater": -1,
            "least": 0.7599864118261952,
            "greatest": 0.7599864118261952,
            "x": -0.3210517900373713,
            "y": -0.5651074251444097,
            "z": 0.7599864118261952
        },
        {
            "size": 2,
            "name": "charlottetown",
            "lat": 46.29,
            "long": -63.121,
            "axis": "y",
            "lesser": 141,
            "greater": -1,
            "least": -0.6184436012586629,
            "greatest": -0.616354292256808,
            "x": 0.31241038232749374,
            "y": -0.616354292256808,
            "z": 0.7228465531705871
        },
        {
            "size": 2,
            "name": "spence bay",
            "lat": 69.547,
            "long": -93.577,
            "axis": "z",
            "lesser": -1,
            "greater": -1,
            "least": 0.93695915085068,
            "greatest": 0.93695915085068,
            "x": -0.02180145177294017,
            "y": -0.3487581487761464,
            "z": 0.93695915085068
        },
        {
            "size": 1,
            "name": "victoria",
            "lat": 48.647,
            "long": -123.426,
            "axis": "x",
            "lesser": 2662,
            "greater": 165,
            "least": -0.4157185815429189,
            "greatest": -0.17624019205917735,
            "x": -0.3639508630021815,
            "y": -0.5514158148249997,
            "z": 0.7506532944581332
        },
        {
            "size": 2,
            "name": "lynn lake",
            "lat": 56.864,
            "long": -101.076,
            "axis": "x",
            "lesser": 158,
            "greater": 70,
            "least": -0.17739702352170938,
            "greatest": -0.04540361885853814,
            "x": -0.10501324056778269,
            "y": -0.5364462847344551,
            "z": 0.8373754253022075
        },
        {
            "size": 2,
            "name": "swift current",
            "lat": 50.292,
            "long": -107.691,
            "axis": "y",
            "lesser": 106,
            "greater": 61,
            "least": -0.660590011917764,
            "greatest": -0.5327162997280326,
            "x": -0.19414358862485606,
            "y": -0.6086623357325146,
            "z": 0.7693103587346932
        },
        {
            "size": 2,
            "name": "churchill",
            "lat": 58.739,
            "long": -94.065,
            "axis": "z",
            "lesser": -1,
            "greater": -1,
            "least": 0.8548122576023969,
            "greatest": 0.8548122576023969,
            "x": -0.036786499996026734,
            "y": -0.5176318746664813,
            "z": 0.8548122576023969
        },
        {
            "size": 2,
            "name": "goose bay",
            "lat": 53.319,
            "long": -60.426,
            "axis": "x",
            "lesser": 135,
            "greater": 6,
            "least": -0.016871017644021075,
            "greatest": 0.348171268382075,
            "x": 0.2948250086900939,
            "y": -0.5195346669739809,
            "z": 0.8019737801593771
        },
        {
            "size": 2,
            "name": "st. john's",
            "lat": 47.619,
            "long": -52.752,
            "axis": "y",
            "lesser": 1845,
            "greater": -1,
            "least": -0.5669085724665481,
            "greatest": -0.5365653371665329,
            "x": 0.4079842044374899,
            "y": -0.5365653371665329,
            "z": 0.7386789071584984
        },
        {
            "size": 2,
            "name": "kapuskasing",
            "lat": 49.414,
            "long": -82.468,
            "axis": "x",
            "lesser": 168,
            "greater": 99,
            "least": -0.021305905141885434,
            "greatest": 0.14145240395651432,
            "x": 0.08527909759667374,
            "y": -0.6449752683386086,
            "z": 0.7594302988060437
        },
        {
            "size": 2,
            "name": "armstrong",
            "lat": 50.29,
            "long": -88.91,
            "axis": "z",
            "lesser": -1,
            "greater": -1,
            "least": 0.7692880573131214,
            "greatest": 0.7692880573131214,
            "x": 0.012153797048281755,
            "y": -0.6387864823966711,
            "z": 0.7692880573131214
        },
        {
            "size": 2,
            "name": "mont joli",
            "lat": 48.609,
            "long": -68.208,
            "axis": "z",
            "lesser": -1,
            "greater": -1,
            "least": 0.7502149390007996,
            "greatest": 0.7502149390007996,
            "x": 0.24546047549770472,
            "y": -0.6139435644002363,
            "z": 0.7502149390007996
        },
        {
            "size": 2,
            "name": "gore bay",
            "lat": 45.885,
            "long": -82.568,
            "axis": "z",
            "lesser": -1,
            "greater": -1,
            "least": 0.7179440836113604,
            "greatest": 0.7179440836113604,
            "x": 0.09004023891123078,
            "y": -0.6902528871248945,
            "z": 0.7179440836113604
        },
        {
            "size": 2,
            "name": "yellowknife",
            "lat": 62.463,
            "long": -114.44,
            "axis": "y",
            "lesser": 62,
            "greater": -1,
            "least": -0.44142369083470767,
            "greatest": -0.42089503870963335,
            "x": -0.19128087350727271,
            "y": -0.42089503870963335,
            "z": 0.8867124640039244
        },
        {
            "size": 2,
            "name": "slave lake",
            "lat": 55.293,
            "long": -114.778,
            "axis": "y",
            "lesser": 198,
            "greater": -1,
            "least": -0.5274196550195491,
            "greatest": -0.5169619722769924,
            "x": -0.23862912964247318,
            "y": -0.5169619722769924,
            "z": 0.8220744842808089
        },
        {
            "size": 2,
            "name": "sandspit",
            "lat": 53.254,
            "long": -131.814,
            "axis": "y",
            "lesser": 197,
            "greater": 2687,
            "least": -0.5035924344114768,
            "greatest": -0.38220031871180926,
            "x": -0.398874453732416,
            "y": -0.4458974780674961,
            "z": 0.8012955816755223
        },
        {
            "size": 2,
            "name": "sarnia",
            "lat": 42.999,
            "long": -82.309,
            "axis": "z",
            "lesser": -1,
            "greater": -1,
            "least": 0.681985595428535,
            "greatest": 0.681985595428535,
            "x": 0.09787903953462672,
            "y": -0.7247864107775238,
            "z": 0.681985595428535
        },
        {
            "size": 2,
            "name": "port hardy",
            "lat": 50.681,
            "long": -127.367,
            "axis": "z",
            "lesser": -1,
            "greater": -1,
            "least": 0.7736301301306724,
            "greatest": 0.7736301301306724,
            "x": -0.38456609543421955,
            "y": -0.5035924344114768,
            "z": 0.7736301301306724
        },
        {
            "size": 2,
            "name": "whitecourt",
            "lat": 54.144,
            "long": -115.787,
            "axis": "z",
            "lesser": -1,
            "greater": -1,
            "least": 0.8104917031886222,
            "greatest": 0.8104917031886222,
            "x": -0.2548170060287697,
            "y": -0.5274196550195491,
            "z": 0.8104917031886222
        },
        {
            "size": 2,
            "name": "sept-iles",
            "lat": 50.223,
            "long": -66.266,
            "axis": "z",
            "lesser": -1,
            "greater": -1,
            "least": 0.7685404181871042,
            "greatest": 0.7685404181871042,
            "x": 0.2575142859548117,
            "y": -0.5856893529354742,
            "z": 0.7685404181871042
        },
        {
            "size": 2,
            "name": "teslin",
            "lat": 60.173,
            "long": -132.743,
            "axis": "x",
            "lesser": 175,
            "greater": 117,
            "least": -0.3612852782666371,
            "greatest": -0.21193623945097667,
            "x": -0.33757921134139096,
            "y": -0.3652806541733713,
            "z": 0.867531163565205
        },
        {
            "size": 2,
            "name": "greenwood",
            "lat": 44.984,
            "long": -64.917,
            "axis": "y",
            "lesser": 138,
            "greater": -1,
            "least": -0.6418513843586577,
            "greatest": -0.6406016234664469,
            "x": 0.29984798261444734,
            "y": -0.6406016234664469,
            "z": 0.7069092921543745
        },
        {
            "size": 2,
            "name": "faro",
            "lat": 62.208,
            "long": -133.376,
            "axis": "y",
            "lesser": 163,
            "greater": 92,
            "least": -0.37613678644862747,
            "greatest": -0.30942609429226353,
            "x": -0.3202216360975602,
            "y": -0.338909140479232,
            "z": 0.8846460864518816
        },
        {
            "size": 2,
            "name": "fort mcpherson",
            "lat": 67.408,
            "long": -134.86,
            "axis": "x",
            "lesser": 2699,
            "greater": 147,
            "least": -0.3266969757008191,
            "greatest": -0.23970426538286485,
            "x": -0.27098210844183224,
            "y": -0.2723096232160905,
            "z": 0.9232638658630207
        },
        {
            "size": 2,
            "name": "blida",
            "lat": 36.504,
            "long": 2.814,
            "axis": "x",
            "lesser": 209,
            "greater": 226,
            "least": 0.7995865812186308,
            "greatest": 0.8115051493004988,
            "x": 0.8028460685761085,
            "y": 0.03946236741392284,
            "z": 0.5948789050974786
        },
        {
            "size": 2,
            "name": "bou saada",
            "lat": 35.333,
            "long": 4.206,
            "axis": "z",
            "lesser": -1,
            "greater": -1,
            "least": 0.5783275900188095,
            "greatest": 0.5783275900188095,
            "x": 0.8136075094467973,
            "y": 0.05983326160937145,
            "z": 0.5783275900188095
        },
        {
            "size": 2,
            "name": "bejaja",
            "lat": 36.712,
            "long": 5.07,
            "axis": "z",
            "lesser": -1,
            "greater": -1,
            "least": 0.5977930573651595,
            "greatest": 0.5977930573651595,
            "x": 0.7985139819271629,
            "y": 0.07084406279175187,
            "z": 0.5977930573651595
        },
        {
            "size": 2,
            "name": "algier",
            "lat": 36.691,
            "long": 3.215,
            "axis": "x",
            "lesser": 216,
            "greater": 210,
            "least": 0.7965804465549335,
            "greatest": 0.8037047585046323,
            "x": 0.8006074594440802,
            "y": 0.04497116288704999,
            "z": 0.5974991969794452
        },
        {
            "size": 2,
            "name": "djanet",
            "lat": 24.293,
            "long": 9.452,
            "axis": "z",
            "lesser": 280,
            "greater": 241,
            "least": 0.14988047541347393,
            "greatest": 0.4785386137135141,
            "x": 0.8990792198589129,
            "y": 0.14968006735480502,
            "z": 0.4114030066182666
        },
        {
            "size": 2,
            "name": "boufarik",
            "lat": 36.546,
            "long": 2.876,
            "axis": "y",
            "lesser": 1636,
            "greater": -1,
            "least": -0.033093218218307484,
            "greatest": 0.040309216772558346,
            "x": 0.802367160728007,
            "y": 0.040309216772558346,
            "z": 0.5954679726303167
        },
        {
            "size": 2,
            "name": "telergma",
            "lat": 36.109,
            "long": 6.364,
            "axis": "y",
            "lesser": 214,
            "greater": -1,
            "least": 0.07489700166600297,
            "greatest": 0.08955098085472708,
            "x": 0.8029188667816722,
            "y": 0.08955098085472708,
            "z": 0.5893232688380728
        },
        {
            "size": 2,
            "name": "reggan",
            "lat": 26.71,
            "long": 0.286,
            "axis": "z",
            "lesser": -1,
            "greater": -1,
            "least": 0.44947491449327964,
            "greatest": 0.44947491449327964,
            "x": 0.8932818249244453,
            "y": 0.004458979806140549,
            "z": 0.44947491449327964
        },
        {
            "size": 2,
            "name": "illizi",
            "lat": 26.573,
            "long": 8.484,
            "axis": "z",
            "lesser": -1,
            "greater": -1,
            "least": 0.447337677881064,
            "greatest": 0.447337677881064,
            "x": 0.8845781916400176,
            "y": 0.13194856885489084,
            "z": 0.447337677881064
        },
        {
            "size": 2,
            "name": "ain oussera",
            "lat": 35.525,
            "long": 2.879,
            "axis": "y",
            "lesser": 224,
            "greater": 221,
            "least": -0.04209783837751618,
            "greatest": 0.11705254591722107,
            "x": 0.8128348318774749,
            "y": 0.04087775772968482,
            "z": 0.5810581253280176
        },
        {
            "size": 2,
            "name": "setif",
            "lat": 36.178,
            "long": 5.324,
            "axis": "z",
            "lesser": -1,
            "greater": -1,
            "least": 0.5902957735732599,
            "greatest": 0.5902957735732599,
            "x": 0.8037047585046323,
            "y": 0.07489700166600297,
            "z": 0.5902957735732599
        },
        {
            "size": 2,
            "name": "tamanrasset",
            "lat": 22.811,
            "long": 5.451,
            "axis": "z",
            "lesser": -1,
            "greater": -1,
            "least": 0.3876925643290822,
            "greatest": 0.3876925643290822,
            "x": 0.9176202264301924,
            "y": 0.08756480805747827,
            "z": 0.3876925643290822
        },
        {
            "size": 2,
            "name": "jijel",
            "lat": 36.795,
            "long": 5.873,
            "axis": "y",
            "lesser": 206,
            "greater": -1,
            "least": 0.07084406279175187,
            "greatest": 0.08193921145753912,
            "x": 0.7965804465549335,
            "y": 0.08193921145753912,
            "z": 0.5989537192405264
        },
        {
            "size": 2,
            "name": "mecheria",
            "lat": 33.536,
            "long": -0.242,
            "axis": "x",
            "lesser": 213,
            "greater": 222,
            "least": 0.7965804465549335,
            "greatest": 0.9988341071213356,
            "x": 0.8335314302568774,
            "y": -0.0035206049616320362,
            "z": 0.5524608222441013
        },
        {
            "size": 2,
            "name": "relizane",
            "lat": 35.752,
            "long": 0.626,
            "axis": "z",
            "lesser": -1,
            "greater": -1,
            "least": 0.5842779945577011,
            "greatest": 0.5842779945577011,
            "x": 0.8115051493004988,
            "y": 0.008866664220910671,
            "z": 0.5842779945577011
        },
        {
            "size": 1,
            "name": "annaba",
            "lat": 36.822,
            "long": 7.809,
            "axis": "y",
            "lesser": -1,
            "greater": -1,
            "least": 0.10876507034282257,
            "greatest": 0.10876507034282257,
            "x": 0.7930778626218529,
            "y": 0.10876507034282257,
            "z": 0.5993310131241952
        },
        {
            "size": 1,
            "name": "constantine",
            "lat": 36.277,
            "long": 6.624,
            "axis": "x",
            "lesser": 219,
            "greater": 1132,
            "least": 0.7930778626218529,
            "greatest": 0.8208156749359644,
            "x": 0.8007843335476659,
            "y": 0.0929938474406901,
            "z": 0.591689610761249
        },
        {
            "size": 2,
            "name": "tebessa",
            "lat": 35.431,
            "long": 8.121,
            "axis": "z",
            "lesser": 295,
            "greater": 207,
            "least": 0.5456340054725042,
            "greatest": 0.5989537192405264,
            "x": 0.8066432556172825,
            "y": 0.11510399027150829,
            "z": 0.5797221141122081
        },
        {
            "size": 2,
            "name": "tilrempt",
            "lat": 32.93,
            "long": 3.312,
            "axis": "y",
            "lesser": 1111,
            "greater": 277,
            "least": -0.04030252416580675,
            "greatest": 0.12064003853406705,
            "x": 0.8379334344971354,
            "y": 0.04849101979919973,
            "z": 0.5436139994064433
        },
        {
            "size": 2,
            "name": "tiaret",
            "lat": 35.341,
            "long": 1.463,
            "axis": "z",
            "lesser": -1,
            "greater": -1,
            "least": 0.5784414921961819,
            "greatest": 0.5784414921961819,
            "x": 0.8154579659563315,
            "y": 0.02082656630885135,
            "z": 0.5784414921961819
        },
        {
            "size": 2,
            "name": "bou sfer",
            "lat": 35.735,
            "long": -0.805,
            "axis": "z",
            "lesser": 230,
            "greater": 204,
            "least": 0.5738194584044456,
            "greatest": 0.5996383393705389,
            "x": 0.8116467943480722,
            "y": -0.011404307096483211,
            "z": 0.584037176046309
        },
        {
            "size": 2,
            "name": "tindouf",
            "lat": 27.7,
            "long": -8.167,
            "axis": "y",
            "lesser": 1161,
            "greater": -1,
            "least": -0.18171529928103866,
            "greatest": -0.12577799132520365,
            "x": 0.8764141540531779,
            "y": -0.12577799132520365,
            "z": 0.4648420457246196
        },
        {
            "size": 2,
            "name": "ech-cheliff",
            "lat": 36.213,
            "long": 1.332,
            "axis": "y",
            "lesser": 218,
            "greater": -1,
            "least": 0.008866664220910671,
            "greatest": 0.018755235056595165,
            "x": 0.806608268537046,
            "y": 0.018755235056595165,
            "z": 0.5907887459030009
        },
        {
            "size": 0,
            "name": "oran",
            "lat": 35.542,
            "long": -0.532,
            "axis": "y",
            "lesser": 1134,
            "greater": -1,
            "least": -0.0973987366099917,
            "greatest": -0.007555122953211289,
            "x": 0.8136545466816457,
            "y": -0.007555122953211289,
            "z": 0.5812995774825984
        },
        {
            "size": 2,
            "name": "tlemcen",
            "lat": 35.017,
            "long": -1.45,
            "axis": "z",
            "lesser": -1,
            "greater": -1,
            "least": 0.5738194584044456,
            "greatest": 0.5738194584044456,
            "x": 0.8187195768951957,
            "y": -0.020723985258163307,
            "z": 0.5738194584044456
        },
        {
            "size": 2,
            "name": "sidi bel abbes",
            "lat": 35.172,
            "long": -0.593,
            "axis": "y",
            "lesser": 228,
            "greater": -1,
            "least": -0.020723985258163307,
            "greatest": -0.008460051751086047,
            "x": 0.8173827183968818,
            "y": -0.008460051751086047,
            "z": 0.5760329150235189
        },
        {
            "size": 2,
            "name": "ghriss",
            "lat": 35.208,
            "long": 0.147,
            "axis": "x",
            "lesser": 1131,
            "greater": 229,
            "least": 0.8152530553548596,
            "greatest": 0.8187195768951957,
            "x": 0.8170617160827143,
            "y": 0.002096285918820065,
            "z": 0.5765464055020346
        },
        {
            "size": 2,
            "name": "adrar",
            "lat": 27.837,
            "long": -0.186,
            "axis": "x",
            "lesser": 233,
            "greater": 236,
            "least": 0.8599278839209084,
            "greatest": 0.8932818249244453,
            "x": 0.8842749519346089,
            "y": -0.0028706428333155403,
            "z": 0.4669577805227884
        },
        {
            "size": 2,
            "name": "biskra",
            "lat": 34.793,
            "long": 5.738,
            "axis": "y",
            "lesser": 205,
            "greater": -1,
            "least": 0.05983326160937145,
            "greatest": 0.08210520053738407,
            "x": 0.8171041947626774,
            "y": 0.08210520053738407,
            "z": 0.5706132411239268
        },
        {
            "size": 2,
            "name": "el golea",
            "lat": 30.571,
            "long": 2.859,
            "axis": "y",
            "lesser": 239,
            "greater": -1,
            "least": 0.004203425819746288,
            "greatest": 0.04294515899492257,
            "x": 0.8599278839209084,
            "y": 0.04294515899492257,
            "z": 0.5086056898759683
        },
        {
            "size": 2,
            "name": "ghardaia",
            "lat": 32.384,
            "long": 3.794,
            "axis": "z",
            "lesser": -1,
            "greater": -1,
            "least": 0.5355909932533579,
            "greatest": 0.5355909932533579,
            "x": 0.8426267692465641,
            "y": 0.05587857992987294,
            "z": 0.5355909932533579
        },
        {
            "size": 2,
            "name": "hassi-messaoud",
            "lat": 31.673,
            "long": 6.14,
            "axis": "x",
            "lesser": 240,
            "greater": 279,
            "least": 0.8426267692465641,
            "greatest": 0.9624060477783919,
            "x": 0.8461765529522186,
            "y": 0.09102772059127989,
            "z": 0.5250706574527442
        },
        {
            "size": 2,
            "name": "in salah",
            "lat": 27.251,
            "long": 2.512,
            "axis": "y",
            "lesser": 211,
            "greater": -1,
            "least": 0.004458979806140549,
            "greatest": 0.03896405005670565,
            "x": 0.8881548690884221,
            "y": 0.03896405005670565,
            "z": 0.4578894313234434
        },
        {
            "size": 2,
            "name": "touggourt",
            "lat": 33.068,
            "long": 6.089,
            "axis": "y",
            "lesser": 238,
            "greater": -1,
            "least": 0.042450873407535505,
            "greatest": 0.0888918185550353,
            "x": 0.8332957318179482,
            "y": 0.0888918185550353,
            "z": 0.5456340054725042
        },
        {
            "size": 2,
            "name": "laghouat",
            "lat": 33.764,
            "long": 2.927,
            "axis": "z",
            "lesser": -1,
            "greater": -1,
            "least": 0.5557733827855257,
            "greatest": 0.5557733827855257,
            "x": 0.830249282043695,
            "y": 0.042450873407535505,
            "z": 0.5557733827855257
        },
        {
            "size": 2,
            "name": "timimoun",
            "lat": 29.237,
            "long": 0.276,
            "axis": "z",
            "lesser": -1,
            "greater": -1,
            "least": 0.48842326585701773,
            "greatest": 0.48842326585701773,
            "x": 0.8725967250574247,
            "y": 0.004203425819746288,
            "z": 0.48842326585701773
        },
        {
            "size": 2,
            "name": "ouargla",
            "lat": 31.917,
            "long": 5.413,
            "axis": "y",
            "lesser": 234,
            "greater": -1,
            "least": 0.05587857992987294,
            "greatest": 0.08007226794624998,
            "x": 0.8450296429902693,
            "y": 0.08007226794624998,
            "z": 0.5286902064287573
        },
        {
            "size": 2,
            "name": "zarzaitine",
            "lat": 28.051,
            "long": 9.643,
            "axis": "x",
            "lesser": 1236,
            "greater": 1225,
            "least": 0.8383708219636038,
            "greatest": 0.8910803944848843,
            "x": 0.8700597485331623,
            "y": 0.14783132907186017,
            "z": 0.4702573041721497
        },
        {
            "size": 0,
            "name": "cotonou",
            "lat": 6.357,
            "long": 2.384,
            "axis": "z",
            "lesser": -1,
            "greater": -1,
            "least": 0.11072308643041935,
            "greatest": 0.11072308643041935,
            "x": 0.9929911026098576,
            "y": 0.04134087890915325,
            "z": 0.11072308643041935
        },